{
	"city": "surabaya",
	"data" : [
			{
			    "lat" : -7.263266667,
			    "lng" : 112.7461,
			    "title" : "Jl. Yos Sudarso - DPRD Tk II",
			    "url" : "rtsp://guest:guest@36.66.208.99/mpeg4/ch39/sub/av_stream"
			},
			{
			    "lat" : -7.304115488565784,
			    "lng" : 112.73676644847944,
			    "title" : "Wonokromo",
			    "url" : "rtsp://guest:guest1234@36.66.208.101/mpeg4/ch11/sub/av_stream"
			},
			{
			    "lat" : -7.26543917036669,
			    "lng" : 112.74088989785673,
			    "title" : "Jl. Basuki Rahmat - Jl. Tegalsari",
			    "url" : "rtsp://guest:guest@36.66.208.99/mpeg4/ch31/sub/av_stream"
			},
			{
			    "lat" : -7.307146611241597,
			    "lng" : 112.71489459863665,
			    "title" : "Jl. Gunung Sari (Bhumi Marinir)",
			    "url" : "rtsp://guest:guest@36.66.208.99/mpeg4/ch10/sub/av_stream"
			},
			{
			    "lat" : -7.303903540564508,
			    "lng" : 112.72567573777201,
			    "title" : "Jl. Gunung Sari - Jl. Gajah Mada (Barat)",
			    "url" : "rtsp://guest:guest@36.66.208.99/mpeg4/ch14/sub/av_stream"
			},
			{
			    "lat" : -7.30574736075844,
			    "lng" : 112.72411197423935,
			    "title" : "Jl. Gunung Sari (depan Pasar Ikan)",
			    "url" : "rtsp://guest:guest@36.66.208.99/mpeg4/ch13/sub/av_stream"
			},
			{
			    "lat" : -7.281303955549619,
			    "lng" : 112.74067729711533,
			    "title" : "Jl. Raya Darmo - Jl. M Jasin Polisi Istimewa (fix timur)",
			    "url" : "rtsp://guest:guest@36.66.208.99/mpeg4/ch25/sub/av_stream"
			},
			{
			    "lat" : -7.263705208822053,
			    "lng" : 112.74338364601135,
			    "title" : "Gubernur Suryo (Grahadi)",
			    "url" : "rtsp://guest:guest@36.66.208.99/mpeg4/ch37/sub/av_stream"
			},
			{
			    "lat" : -7.2562046792707795,
			    "lng" : 112.74264335632324,
			    "title" : "Genteng Kali Undaan",
			    "url" : "rtsp://guest:guest@36.66.208.99/mpeg4/ch40/sub/av_stream"
			},
			{
			    "lat" : -7.248517770599923,
			    "lng" : 112.74696707725525,
			    "title" : "Jl. Undaan - Kalianyar",
			    "url" : "rtsp://guest:guest@36.66.208.99/mpeg4/ch41/sub/av_stream"
			},
			{
			    "lat" : -7.2483501418461325,
			    "lng" : 112.74657279253006,
			    "title" : "Jl. Jagalan - Undaan",
			    "url" : "rtsp://guest:guest@36.66.208.99/mpeg4/ch42/sub/av_stream"
			},
			{
			    "lat" : -7.268957367508962,
			    "lng" : 112.741519510746,
			    "title" : "Jl. Basuki Rahmat (PCTL Gramedia Expo)",
			    "url" : "rtsp://guest:guest@36.66.208.99/mpeg4/ch30/sub/av_stream"
			},
			{
			    "lat" : -7.259711505038493,
			    "lng" : 112.7356481552124,
			    "title" : "Embong Malang (PCTL)",
			    "url" : "rtsp://guest:guest@36.66.208.99/mpeg4/ch33/sub/av_stream"
			},
			{
			    "lat" : -7.281233450193045,
			    "lng" : 112.74068266153336,
			    "title" : "Jl. Raya Darmo - Jl. M Jasin Polisi Istimewa",
			    "url" : "rtsp://guest:guest@36.66.208.99/mpeg4/ch24/sub/av_stream"
			},
			{
			    "lat" : -7.256029071191988,
			    "lng" : 112.73413002490997,
			    "title" : "Blauran - Praban (fix Kranggan)",
			    "url" : "rtsp://guest:guest@36.66.208.99/mpeg4/ch35/sub/av_stream"
			},
			{
			    "lat" : -7.303297094314171,
			    "lng" : 112.63318240642548,
			    "title" : "Lakarsantri - Made (Fix 1)",
			    "url" : "rtsp://guest:guest@36.66.208.99/mpeg4/ch6/sub/av_stream"
			},
			{
			    "lat" : -7.303209299501774,
			    "lng" : 112.63308584690094,
			    "title" : "Lakarsantri - Made (Fix 2)",
			    "url" : "rtsp://guest:guest@36.66.208.99/mpeg4/ch7/sub/av_stream"
			},
			{
			    "lat" : -7.295539158910827,
			    "lng" : 112.73934423923492,
			    "title" : "Jl. Raya Darmo (al-Falah)",
			    "url" : "rtsp://guest:guest@36.66.208.99/mpeg4/ch17/sub/av_stream"
			},
			{
			    "lat" : -7.281145651054267,
			    "lng" : 112.74063438177109,
			    "title" : "Jl. Raya Darmo - Jl. M Jasin Polisi Istimewa (fix utara)",
			    "url" : "rtsp://guest:guest@36.66.208.99/mpeg4/ch26/sub/av_stream"
			},
			{
			    "lat" : -7.258458310198229,
			    "lng" : 112.73306518793106,
			    "title" : "Embong Malang - Tidar (Fix Selatan)",
			    "url" : "rtsp://guest:guest@36.66.208.99/mpeg4/ch34/sub/av_stream"
			},
			{
			    "lat" : -7.234678875846944,
			    "lng" : 112.730712890625,
			    "title" : "Indrapura - Rajawali (fix Selatan)",
			    "url" : "rtsp://guest:guest@36.66.208.99/mpeg4/ch46/sub/av_stream"
			},
			{
			    "lat" : -7.252495609228951,
			    "lng" : 112.73680686950684,
			    "title" : "Jl. Gemblongan - Peneleh",
			    "url" : "rtsp://guest:guest@36.66.208.99/mpeg4/ch50/sub/av_stream"
			},
			{
			    "lat" : -7.232630012817878,
			    "lng" : 112.72827744483948,
			    "title" : "Jl. Perak - Jl. Krembangan",
			    "url" : "rtsp://guest:guest@36.66.208.99/mpeg4/ch58/sub/av_stream"
			},
			{
			    "lat" : -7.2449948928790455,
			    "lng" : 112.71834522485733,
			    "title" : "Dupak Rukun Babatan",
			    "url" : "rtsp://guest:guest@36.66.208.99/mpeg4/ch62/sub/av_stream"
			},
			{
			    "lat" : -7.284678887669432,
			    "lng" : 112.73338437080383,
			    "title" : "Jl. Diponegoro - Jl. Dr. Soetomo (Fix 2)",
			    "url" : "rtsp://guest:guest@36.66.208.99/mpeg4/ch72/sub/av_stream"
			},
			{
			    "lat" : -7.284551180806974,
			    "lng" : 112.73322880268097,
			    "title" : "Jl. Diponegoro - Jl. Dr. Soetomo",
			    "url" : "rtsp://guest:guest@36.66.208.99/mpeg4/ch70/sub/av_stream"
			},
			{
			    "lat" : -7.285671275173091,
			    "lng" : 112.69805431365967,
			    "title" : "Jl. HR. Muhammad (PCTL2)",
			    "url" : "rtsp://guest:guest@36.66.208.99/mpeg4/ch87/sub/av_stream"
			},
			{
			    "lat" : -7.308434391034893,
			    "lng" : 112.73557305335999,
			    "title" : "Jl. Ahmad Yani - Mayangkara",
			    "url" : "rtsp://guest:guest1234@36.66.208.101/mpeg4/ch9/sub/av_stream"
			},
			{
			    "lat" : -7.277750737840445,
			    "lng" : 112.74327769875526,
			    "title" : "Keputran - Dinoyo",
			    "url" : "rtsp://guest:guest1234@36.66.208.101/mpeg4/ch16/sub/av_stream"
			},
			{
			    "lat" : -7.247783396549936,
			    "lng" : 112.74224638938904,
			    "title" : "Jl. Jagalan - Pasar Besar",
			    "url" : "rtsp://guest:guest@36.66.208.99/mpeg4/ch43/sub/av_stream"
			},
			{
			    "lat" : -7.236690477772388,
			    "lng" : 112.73793339729309,
			    "title" : "Jembatan Merah",
			    "url" : "rtsp://guest:guest@36.66.208.99/mpeg4/ch47/sub/av_stream"
			},
			{
			    "lat" : -7.245032143996006,
			    "lng" : 112.72097110748291,
			    "title" : "Jl. Dupak - Demak",
			    "url" : "rtsp://guest:guest@36.66.208.99/mpeg4/ch61/sub/av_stream"
			},
			{
			    "lat" : -7.274456902504239,
			    "lng" : 112.72698864340782,
			    "title" : "Jl. Diponegoro - FlyOver Pasar Kembang",
			    "url" : "rtsp://guest:guest@36.66.208.99/mpeg4/ch67/sub/av_stream"
			},
			{
			    "lat" : -7.283965857221809,
			    "lng" : 112.73327171802521,
			    "title" : "Jl. Diponegoro - Jl. Dr. Soetomo (Fix 1)",
			    "url" : "rtsp://guest:guest@36.66.208.99/mpeg4/ch71/sub/av_stream"
			},
			{
			    "lat" : -7.290242082538849,
			    "lng" : 112.7362248301506,
			    "title" : "Jl. Diponegoro - Jl. Kutai",
			    "url" : "rtsp://guest:guest@36.66.208.99/mpeg4/ch73/sub/av_stream"
			},
			{
			    "lat" : -7.286248614881271,
			    "lng" : 112.73434728384018,
			    "title" : "Jl. Diponegoro - Jl. Musi T",
			    "url" : "rtsp://guest:guest@36.66.208.99/mpeg4/ch74/sub/av_stream"
			},
			{
			    "lat" : -7.28630714697606,
			    "lng" : 112.7341702580452,
			    "title" : "Jl. Diponegoro - Jl. Musi B",
			    "url" : "rtsp://guest:guest@36.66.208.99/mpeg4/ch75/sub/av_stream"
			},
			{
			    "lat" : -7.292418387698991,
			    "lng" : 112.72730514407158,
			    "title" : "Jl. Mayjend. Sungkono (Toko Buah)",
			    "url" : "rtsp://guest:guest@36.66.208.99/mpeg4/ch79/sub/av_stream"
			},
			{
			    "lat" : -7.2924263692387905,
			    "lng" : 112.72749155759811,
			    "title" : "Jl. Mayjend. Sungkono (Toko Buah) 2",
			    "url" : "rtsp://guest:guest@36.66.208.99/mpeg4/ch80/sub/av_stream"
			},
			{
			    "lat" : -7.291830413875773,
			    "lng" : 112.72037297487259,
			    "title" : "Jl. Mayjend. Sungkono (Ciputra World)",
			    "url" : "rtsp://guest:guest@36.66.208.99/mpeg4/ch81/sub/av_stream"
			},
			{
			    "lat" : -7.290522767967135,
			    "lng" : 112.71345019340515,
			    "title" : "Jl. Mayjend. Sungkono (TVRI)",
			    "url" : "rtsp://guest:guest@36.66.208.99/mpeg4/ch82/sub/av_stream"
			},
			{
			    "lat" : -7.287110632231654,
			    "lng" : 112.70413756370544,
			    "title" : "Jl. HR. Muhammad - Ngesong",
			    "url" : "rtsp://guest:guest@36.66.208.99/mpeg4/ch85/sub/av_stream"
			},
			{
			    "lat" : -7.285884119391689,
			    "lng" : 112.69801273941994,
			    "title" : "Jl. Mayjen H.R. Moh (PCTL)",
			    "url" : "rtsp://guest:guest@36.66.208.99/mpeg4/ch86/sub/av_stream"
			},
			{
			    "lat" : -7.281387763789247,
			    "lng" : 112.6846593618393,
			    "title" : "Jl. Mayjen H.R. Moh (PTC)",
			    "url" : "rtsp://guest:guest@36.66.208.99/mpeg4/ch88/sub/av_stream"
			},
			{
			    "lat" : -7.258363854819307,
			    "lng" : 112.67950549721718,
			    "title" : "Jl. Raya Tandes - Jl. Raya Balongsari",
			    "url" : "rtsp://guest:guest@36.66.208.99/mpeg4/ch93/sub/av_stream"
			},
			{
			    "lat" : -7.260699956679701,
			    "lng" : 112.69229292869568,
			    "title" : "Jl. Tanjungsari -Jl. Raya Tandes",
			    "url" : "rtsp://guest:guest@36.66.208.99/mpeg4/ch94/sub/av_stream"
			},
			{
			    "lat" : -7.3457744550835935,
			    "lng" : 112.72922694683075,
			    "title" : "Waru Bunderan (CITO)",
			    "url" : "rtsp://guest:guest1234@36.66.208.101/mpeg4/ch1/sub/av_stream"
			},
			{
			    "lat" : -7.328224801900456,
			    "lng" : 112.73122787475586,
			    "title" : "A. Yani Taman Pelangi",
			    "url" : "rtsp://guest:guest1234@36.66.208.101/mpeg4/ch2/sub/av_stream"
			},
			{
			    "lat" : -7.3163583757957324,
			    "lng" : 112.73393958806992,
			    "title" : "Jl. Ahmad Yani - Jl. Raya Margorejo",
			    "url" : "rtsp://guest:guest1234@36.66.208.101/mpeg4/ch4/sub/av_stream"
			},
			{
			    "lat" : -7.3163397531997285,
			    "lng" : 112.73389667272568,
			    "title" : "Jl. Ahmad Yani - Jl. Raya Margorejo 2",
			    "url" : "rtsp://guest:guest1234@36.66.208.101/mpeg4/ch5/sub/av_stream"
			},
			{
			    "lat" : -7.3162333383505045,
			    "lng" : 112.73401871323586,
			    "title" : "Jl. Ahmad Yani - Jl. Raya Margorejo 3",
			    "url" : "rtsp://guest:guest1234@36.66.208.101/mpeg4/ch6/sub/av_stream"
			},
			{
			    "lat" : -7.307340957892087,
			    "lng" : 112.73614168167114,
			    "title" : "Jl. Ahmad Yani  (Frontage RSAL)",
			    "url" : "rtsp://guest:guest1234@36.66.208.101/mpeg4/ch8/sub/av_stream"
			},
			{
			    "lat" : -7.307426091468851,
			    "lng" : 112.73554623126984,
			    "title" : "Jl. Ahmad Yani (Layang Mayangkara)",
			    "url" : "rtsp://guest:guest1234@36.66.208.101/mpeg4/ch10/sub/av_stream"
			},
			{
			    "lat" : -7.303632310711989,
			    "lng" : 112.73766785860062,
			    "title" : "Jl. St. Wonokromo",
			    "url" : "rtsp://guest:guest@36.66.208.99/mpeg4/ch113/sub/av_stream"
			},
			{
			    "lat" : -7.3006472796574,
			    "lng" : 112.73969829082489,
			    "title" : "Jl. Jagir - Wonokromo - Jagir",
			    "url" : "rtsp://guest:guest1234@36.66.208.101/mpeg4/ch13/sub/av_stream"
			},
			{
			    "lat" : -7.3008148888809945,
			    "lng" : 112.73991286754608,
			    "title" : "Jl. Jagir - Wonokromo Stasiun",
			    "url" : "rtsp://guest:guest1234@36.66.208.101/mpeg4/ch14/sub/av_stream"
			},
			{
			    "lat" : -7.2887841117971135,
			    "lng" : 112.74464964866638,
			    "title" : "Jl. Raya Ngagel - Bung Tomo",
			    "url" : "rtsp://guest:guest1234@36.66.208.101/mpeg4/ch15/sub/av_stream"
			},
			{
			    "lat" : -7.276965206889192,
			    "lng" : 112.74515012969857,
			    "title" : "Jl. Raya Ngagel - Sulawesi",
			    "url" : "rtsp://guest:guest1234@36.66.208.101/mpeg4/ch17/sub/av_stream"
			},
			{
			    "lat" : -7.347466667,
			    "lng" : 112.6824,
			    "title" : "PDAM Kr. pilang",
			    "url" : "rtsp://guest:guest@36.66.208.99/mpeg4/ch3/sub/av_stream"
			},
			{
			    "lat" : -7.260903500287615,
			    "lng" : 112.74908065795898,
			    "title" : "Pagesangan",
			    "url" : "rtsp://guest:guest1234@36.66.208.101/mpeg4/ch7/sub/av_stream"
			},
			{
			    "lat" : -7.303286452519646,
			    "lng" : 112.73796826601028,
			    "title" : "Wonokromo DTC Jl. St. Wonokromo",
			    "url" : "rtsp://guest:guest1234@36.66.208.101/mpeg4/ch12/main/av_stream"
			},
			{
			    "lat" : -7.258413078047406,
			    "lng" : 112.68035173416138,
			    "title" : "Manukan - Margomulyo (Tandes)",
			    "url" : "rtsp://guest:guest@36.66.208.99/mpeg4/ch96/sub/av_stream"
			},
			{
			    "lat" : -7.24090523367628,
			    "lng" : 112.68272280693054,
			    "title" : "Margomulyo Tol sisi timur",
			    "url" : "rtsp://guest:guest@36.66.208.99/mpeg4/ch98/sub/av_stream"
			},
			{
			    "lat" : -7.240511432393653,
			    "lng" : 112.68210053443909,
			    "title" : "Margomulyo Tol sisi barat",
			    "url" : "rtsp://guest:guest@36.66.208.99/mpeg4/ch97/sub/av_stream"
			},
			{
			    "lat" : -7.229726997463416,
			    "lng" : 112.68252164125443,
			    "title" : "Margomulyo - Kalianak - Greges",
			    "url" : "rtsp://guest:guest@36.66.208.99/mpeg4/ch99/sub/av_stream"
			},
			{
			    "lat" : -7.196531248819024,
			    "lng" : 112.64600336551666,
			    "title" : "Romokalisari - TOW (fix timur)",
			    "url" : "rtsp://guest:guest@36.66.208.99/mpeg4/ch101/sub/av_stream"
			},
			{
			    "lat" : -7.273858262629792,
			    "lng" : 112.74709045886993,
			    "title" : "Jl. Raya Gubeng - Jl. Karimun Jawa",
			    "url" : "rtsp://guest:guest1234@36.66.208.101/mpeg4/ch120/sub/av_stream"
			},
			{
			    "lat" : -7.266469650555184,
			    "lng" : 112.75134444236755,
			    "title" : "Jl. Sumatera - Jl. Pemuda",
			    "url" : "rtsp://guest:guest1234@36.66.208.101/mpeg4/ch20/sub/av_stream"
			},
			{
			    "lat" : -7.266290055482657,
			    "lng" : 112.7510279417038,
			    "title" : "Jl. Gubeng Pojok - Pemuda",
			    "url" : "rtsp://guest:guest1234@36.66.208.101/mpeg4/ch21/sub/av_stream"
			},
			{
			    "lat" : -7.264591215579362,
			    "lng" : 112.74572789669037,
			    "title" : "Jl. Pemuda",
			    "url" : "rtsp://guest:guest1234@36.66.208.101/mpeg4/ch22/sub/av_stream"
			},
			{
			    "lat" : -7.263495014770479,
			    "lng" : 112.75071948766708,
			    "title" : "Jl. Gubeng Pojok (Grand City)",
			    "url" : "rtsp://guest:guest1234@36.66.208.101/mpeg4/ch23/sub/av_stream"
			},
			{
			    "lat" : -7.2560397141078115,
			    "lng" : 112.75038689374924,
			    "title" : "Jl. Kusuma Bangsa - Jl. Ambengan",
			    "url" : "rtsp://guest:guest1234@36.66.208.101/mpeg4/ch25/sub/av_stream"
			},
			{
			    "lat" : -7.256059004392087,
			    "lng" : 112.7504801005125,
			    "title" : "Jl. Kusuma Bangsa Pospol",
			    "url" : "rtsp://guest:guest1234@36.66.208.101/mpeg4/ch26/sub/av_stream"
			},
			{
			    "lat" : -7.256014437182338,
			    "lng" : 112.7487051486969,
			    "title" : "Jl. Ambengan - Jl. Wijaya Kusuma",
			    "url" : "rtsp://guest:guest1234@36.66.208.101/mpeg4/ch27/sub/av_stream"
			},
			{
			    "lat" : -7.248990057626341,
			    "lng" : 112.75015488266945,
			    "title" : "Jl. Kusuma Bangsa - Jl. Kapasari (sltn)",
			    "url" : "rtsp://guest:guest1234@36.66.208.101/mpeg4/ch28/sub/av_stream"
			},
			{
			    "lat" : -7.248849036763266,
			    "lng" : 112.75047942996025,
			    "title" : "Jl. Kusuma Bangsa - Jl. Kapasari (utara)",
			    "url" : "rtsp://guest:guest1234@36.66.208.101/mpeg4/ch29/sub/av_stream"
			},
			{
			    "lat" : -7.238316250024463,
			    "lng" : 112.74476766586304,
			    "title" : "Jl. Kembang Jepun - Jl. Kapasan (Barat)",
			    "url" : "rtsp://guest:guest1234@36.66.208.101/mpeg4/ch30/sub/av_stream"
			},
			{
			    "lat" : -7.238502508337215,
			    "lng" : 112.74508953094482,
			    "title" : "Jl. Kembang Jepun - Jl. Kapasan (Timur)",
			    "url" : "rtsp://guest:guest1234@36.66.208.101/mpeg4/ch31/sub/av_stream"
			},
			{
			    "lat" : -7.304254854783885,
			    "lng" : 112.63611137866974,
			    "title" : "Lakarsantri - Driyorejo (Fix1)",
			    "url" : "rtsp://guest:guest@36.66.208.99/mpeg4/ch4/sub/av_stream"
			},
			{
			    "lat" : -7.304260175669646,
			    "lng" : 112.63613685965538,
			    "title" : "Lakarsantri - Driyorejo (Fix2)",
			    "url" : "rtsp://guest:guest@36.66.208.99/mpeg4/ch5/sub/av_stream"
			},
			{
			    "lat" : -7.307607000265621,
			    "lng" : 112.71653205156326,
			    "title" : "Jl. Gunung Sari (Hotel Singgasana)",
			    "url" : "rtsp://guest:guest@36.66.208.99/mpeg4/ch11/sub/av_stream"
			},
			{
			    "lat" : -7.307170690689874,
			    "lng" : 112.71959245204926,
			    "title" : "Jl. Gunung Sari (Jembatan Rolak)",
			    "url" : "rtsp://guest:guest@36.66.208.99/mpeg4/ch12/sub/av_stream"
			},
			{
			    "lat" : -7.298545507870514,
			    "lng" : 112.73695439100266,
			    "title" : "Terminal Joyoboyo",
			    "url" : "rtsp://guest:guest@36.66.208.99/mpeg4/ch15/sub/av_stream"
			},
			{
			    "lat" : -7.295765300906783,
			    "lng" : 112.73873001337051,
			    "title" : "Jl. Diponegoro - Darmo (Depan KBS)",
			    "url" : "rtsp://guest:guest@36.66.208.99/mpeg4/ch16/sub/av_stream"
			},
			{
			    "lat" : -7.279780771322652,
			    "lng" : 112.74392411112785,
			    "title" : "Jl. Dinoyo - Pol. Istimewa",
			    "url" : "rtsp://guest:guest@36.66.208.99/mpeg4/ch23/sub/av_stream"
			},
			{
			    "lat" : -7.2774554111031735,
			    "lng" : 112.74128079414368,
			    "title" : "Jl. Urip Sumoharjo - Pandegiling",
			    "url" : "rtsp://guest:guest@36.66.208.99/mpeg4/ch27/sub/av_stream"
			},
			{
			    "lat" : -7.273319486060216,
			    "lng" : 112.74223431944847,
			    "title" : "Jl. Panglima Sudirman",
			    "url" : "rtsp://guest:guest@36.66.208.99/mpeg4/ch29/sub/av_stream"
			},
			{
			    "lat" : -7.265643512627228,
			    "lng" : 112.73030251264572,
			    "title" : "Jl. Kedungdoro - Kedungsari Fix",
			    "url" : "rtsp://guest:guest@36.66.208.99/mpeg4/ch32/sub/av_stream"
			},
			{
			    "lat" : -7.272502007783365,
			    "lng" : 112.74436734616756,
			    "title" : "Jl. Kayoon - Sonokembang",
			    "url" : "rtsp://guest:guest@36.66.208.99/mpeg4/ch38/sub/av_stream"
			},
			{
			    "lat" : -7.224999246685085,
			    "lng" : 112.74091936647892,
			    "title" : "Jl. Hang Tuah - Ujung Perak",
			    "url" : "rtsp://guest:guest@36.66.208.99/mpeg4/ch45/sub/av_stream"
			},
			{
			    "lat" : -7.243230782886874,
			    "lng" : 112.73811645805836,
			    "title" : "Jl. Pahlawan - Kebonrojo",
			    "url" : "rtsp://guest:guest@36.66.208.99/mpeg4/ch48/sub/av_stream"
			},
			{
			    "lat" : -7.247642375309125,
			    "lng" : 112.74179577827454,
			    "title" : "Jl. Pahlawan - Tembaan Fix",
			    "url" : "rtsp://guest:guest@36.66.208.99/mpeg4/ch49/sub/av_stream"
			},
			{
			    "lat" : -7.255880070344137,
			    "lng" : 112.73709386587143,
			    "title" : "Jl. Gemblongan - Tunjungan",
			    "url" : "rtsp://guest:guest@36.66.208.99/mpeg4/ch51/sub/av_stream"
			},
			{
			    "lat" : -7.255955901138941,
			    "lng" : 112.73423999547958,
			    "title" : "Jl. Blauran - Praban",
			    "url" : "rtsp://guest:guest@36.66.208.99/mpeg4/ch52/sub/av_stream"
			},
			{
			    "lat" : -7.255941267126899,
			    "lng" : 112.73444920778275,
			    "title" : "Jl. Blauran - Bubutan",
			    "url" : "rtsp://guest:guest@36.66.208.99/mpeg4/ch53/sub/av_stream"
			},
			{
			    "lat" : -7.2471248535848956,
			    "lng" : 112.73691147565842,
			    "title" : "Jl. Bubutan - Tembaan",
			    "url" : "rtsp://guest:guest@36.66.208.99/mpeg4/ch54/sub/av_stream"
			},
			{
			    "lat" : -7.247063655603917,
			    "lng" : 112.7369275689125,
			    "title" : "Jl. Bubutan - Tembaan (Fix)",
			    "url" : "rtsp://guest:guest@36.66.208.99/mpeg4/ch55/sub/av_stream"
			},
			{
			    "lat" : -7.243571365745932,
			    "lng" : 112.7369087934494,
			    "title" : "Jl. Bubutan - Kebonrojo",
			    "url" : "rtsp://guest:guest@36.66.208.99/mpeg4/ch56/sub/av_stream"
			},
			{
			    "lat" : -7.241487952510846,
			    "lng" : 112.73273259401321,
			    "title" : "Jl. Indrapura (DPRD)",
			    "url" : "rtsp://guest:guest@36.66.208.99/mpeg4/ch57/sub/av_stream"
			},
			{
			    "lat" : -7.255896034723044,
			    "lng" : 112.72784292697906,
			    "title" : "Jl. Kalibutuh - Arjuno - Semarang",
			    "url" : "rtsp://guest:guest@36.66.208.99/mpeg4/ch64/sub/av_stream"
			},
			{
			    "lat" : -7.27490122580593,
			    "lng" : 112.72675395011902,
			    "title" : "Jl. Banyu Urip (Pos. Pol.)",
			    "url" : "rtsp://guest:guest@36.66.208.99/mpeg4/ch65/sub/av_stream"
			},
			{
			    "lat" : -7.26610513899964,
			    "lng" : 112.70709067583084,
			    "title" : "Jl. Banyu Urip (Tol Simo)",
			    "url" : "rtsp://guest:guest@36.66.208.99/mpeg4/ch68/sub/av_stream"
			},
			{
			    "lat" : -7.275745970989757,
			    "lng" : 112.70800530910492,
			    "title" : "Jl. Kupang Jaya - Ngesong",
			    "url" : "rtsp://guest:guest@36.66.208.99/mpeg4/ch69/sub/av_stream"
			},
			{
			    "lat" : -7.294560095774829,
			    "lng" : 112.73171335458755,
			    "title" : "Jl. Adityawarman - Kutai",
			    "url" : "rtsp://guest:guest@36.66.208.99/mpeg4/ch76/sub/av_stream"
			},
			{
			    "lat" : -7.292838083473828,
			    "lng" : 112.72975064814091,
			    "title" : "Jl. Adityawarman - Indragiri",
			    "url" : "rtsp://guest:guest@36.66.208.99/mpeg4/ch78/sub/av_stream"
			},
			{
			    "lat" : -7.286960311424184,
			    "lng" : 112.70575895905495,
			    "title" : "Jl. Darmo Satelit - HR. Moh.",
			    "url" : "rtsp://guest:guest@36.66.208.99/mpeg4/ch84/sub/av_stream"
			},
			{
			    "lat" : -7.3264929432329025,
			    "lng" : 112.73174554109573,
			    "title" : "Jl. Ahmad Yani - Dolog",
			    "url" : "rtsp://guest:guest1234@36.66.208.101/mpeg4/ch3/sub/av_stream"
			},
			{
			    "lat" : -7.291366667,
			    "lng" : 112.7406333,
			    "title" : "Taman Bungkul (depan RS)",
			    "url" : "rtsp://guest:guest@36.66.208.99/mpeg4/ch22/sub/av_stream"
			},
			{
			    "lat" : -7.312916667,
			    "lng" : 112.7097,
			    "title" : "Jl. Mastrip -  Jl. Gunungsari",
			    "url" : "rtsp://guest:guest@36.66.208.99/mpeg4/ch8/sub/av_stream"
			},
			{
			    "lat" : -7.2912,
			    "lng" : 112.73935,
			    "title" : "Taman Bungkul (Taman bermain-theater)",
			    "url" : "rtsp://guest:guest@36.66.208.99/mpeg4/ch21/sub/av_stream"
			},
			{
			    "lat" : -7.310533333,
			    "lng" : 112.7108333,
			    "title" : "Jl. Gunung Sari (Exit Tol)",
			    "url" : "rtsp://guest:guest@36.66.208.99/mpeg4/ch9/sub/av_stream"
			},
			{
			    "lat" : -7.291733333,
			    "lng" : 112.7400667,
			    "title" : "Taman Bungkul (arena skateboard)",
			    "url" : "rtsp://guest:guest@36.66.208.99/mpeg4/ch20/sub/av_stream"
			},
			{
			    "lat" : -7.291766667,
			    "lng" : 112.7392,
			    "title" : "Taman Bungkul (dekat Jl. Darmo)",
			    "url" : "rtsp://guest:guest@36.66.208.99/mpeg4/ch19/sub/av_stream"
			},
			{
			    "lat" : -7.291016667,
			    "lng" : 112.7401833,
			    "title" : "Taman Bungkul (taman bermain progo)",
			    "url" : "rtsp://guest:guest@36.66.208.99/mpeg4/ch18/sub/av_stream"
			},
			{
			    "lat" : -7.256,
			    "lng" : 112.7372333,
			    "title" : "Siola",
			    "url" : "rtsp://guest:guest@36.66.208.99/mpeg4/ch36/sub/av_stream"
			}
		]
}
